Name,Website__c,EmployeeCount__c,Sector__c,Stage__c,LinkedIn__c,Description__c,Address__c,City__c,County__c,HiringStatus__c,YearFounded__c,Latitude__c,Longitude__c
Alcomy,https://alcomy.com,2-10,B2B Software,Seed,https://www.linkedin.com/company/alcomy,Digital system for assisted living,"815 West 1250 South, Orem, UT",Orem,Utah,Actively Hiring,,40.308054,-111.751599
alphaMountain,https://www.alphamountain.ai,2-10,Security,Seed,https://www.linkedin.com/company/alphamountain,Next-gen cybersecurity products,"1557 West Innovation Way, Lehi, UT",Lehi,Utah,Actively Hiring,,40.278902,-111.727815
Altitude AI,https://www.altitudeai.ai,2-10,B2B Software,Seed,https://www.linkedin.com/company/altitude-ai,Industrial robotics via Altitude OS,"215 South State Street, Salt Lake City, UT",Salt Lake City,Salt Lake,Actively Hiring,,40.779718,-111.869796
Alysio,https://www.alysio.ai,2-10,B2B Software,Seed,https://www.linkedin.com/company/alysio,People performance management for sales,"1637 East Harrison Avenue, Salt Lake City, UT",Salt Lake City,Salt Lake,Actively Hiring,,40.792174,-111.940567
Bracket Labs,https://www.bracket.fi,2-10,FinTech,Seed,https://www.linkedin.com/company/bracket-labs,Liquid Staked DeFi. Backed By Binance Labs.,"2901 West Bluegrass Boulevard, Lehi, UT",Lehi,Utah,Actively Hiring,,40.290654,-111.751024
Crew,https://www.trycrew.com,2-10,FinTech,Seed,https://www.linkedin.com/company/trycrew,Neobank for families / financial literacy,"2000 Ashton Boulevard, Lehi, UT",Lehi,Utah,Actively Hiring,,40.274391,-111.693957
Data Quality Co-Op,https://www.dataqualityco-op.com,2-10,B2B Software,Seed,https://www.linkedin.com/company/data-quality-co-op,Ensures business decisions informed by high-quality data,"Salt Lake City, UT",,Salt Lake,Actively Hiring,,40.722923,-111.927139
DeepPower,https://www.deeppower.com,2-10,Energy,Series A,https://www.linkedin.com/company/deeppowerinc,Breakthrough geothermal drilling technology,"1633 West Innovation Way, Lehi, UT",Lehi,Utah,Actively Hiring,,40.308891,-111.689207
Domus Diagnostics,https://www.domusdx.com,2-10,Bio/Medical Tech,Seed,https://www.linkedin.com/company/domusdx,Affordable infectious disease diagnostic tests,"1445 Settlement Drive, Park City, UT",Park City,Summit,Actively Hiring,,40.838735,-110.988388
Dónde,https://www.godonde.com,2-10,B2B Software,Seed,https://www.linkedin.com/company/donde,Travel-as-a-benefit for companies,"26 Rio Grand Street, Salt Lake City, UT",Salt Lake City,Salt Lake,Actively Hiring,,40.785554,-111.95022
Dorai,https://www.doraihome.com,2-10,Consumer,Seed,https://www.linkedin.com/company/dorai-home,Home products preventing bacteria/moisture,"1171 West 2400 South, West Valley City, UT",West Valley City,Salt Lake,Actively Hiring,,40.785266,-111.867223
dree,https://www.dree.com,2-10,Consumer,Seed,https://www.linkedin.com/company/joindree,Find a LaundryPro in your area in 60 seconds,"139 Hunter's Grove Lane, Lehi, UT",Lehi,Utah,Actively Hiring,,40.28412,-111.735942
Driven,https://pestiq.webflow.io,2-10,B2B Software,Seed,https://www.linkedin.com/company/bemoredriven,Performance improvement for pest control industry,"1355 South 960 East, Heber City, UT",Heber City,Wasatch,Actively Hiring,,40.501777,-111.303109
EagleCorps,https://www.eaglecorps.com,2-10,B2B Software,Seed,https://www.linkedin.com/company/eaglecorps,Addressing veteran underemployment crisis,"350 East 400 South, Salt Lake City, UT",Salt Lake City,Salt Lake,Actively Hiring,,40.72822,-111.939394
Ednition,https://www.ednition.com,2-10,B2B Software,Seed,https://www.linkedin.com/company/ednition,Rostering infrastructure and automation platform,"18 West 1900 South, Kaysville, UT",Kaysville,Davis,Actively Hiring,,41.0216,-111.877553
Errand,https://www.goerrand.com,2-10,Consumer,Seed,https://www.linkedin.com/company/goerrand,On-demand customizable errand running service,"815 West 1250 South, Orem, UT",Orem,Utah,Actively Hiring,,40.32147,-111.667032
Funner,https://www.funner.com,2-10,Consumer,Seed,https://www.linkedin.com/company/funner,Students discover others with shared interests,,,Salt Lake,Actively Hiring,,40.763698,-111.834226
Giddy,https://www.giddy.co,2-10,FinTech,Series A,https://www.linkedin.com/company/giddydefi,Self-custody mobile crypto wallet,"13894 South Bangerter Parkway, Draper, UT",Draper,Salt Lake,Actively Hiring,,40.751083,-111.884755
Inherent Biosciences,https://www.inherentbio.com,2-10,Bio/Medical Tech,Series A,https://www.linkedin.com/company/inherent-biosciences-inc,Pioneering epigenetic medicine for complex diseases,"26 South Rio Grande Street, Salt Lake City, UT",Salt Lake City,Salt Lake,Actively Hiring,,40.787152,-111.876778
Jipe,https://www.jipejobs.com,2-10,B2B Software,Seed,https://www.linkedin.com/company/jipejobs,Connects entry-level job seekers with local businesses,"1053 Blackstone Drive, Fruit Heights, UT",Fruit Heights,Davis,Actively Hiring,,41.022737,-111.880718
Veras,https://www.jobwise.com,2-10,B2B Software,Seed,https://www.linkedin.com/company/jobwise-recruiting,AI workforce optimizer for long-term care,"3400 North Ashton Boulevard, Lehi, UT",Lehi,Utah,Actively Hiring,,40.313266,-111.749101
KetoNatural Pet Foods,https://www.ketonaturalpetfoods.com,2-10,Consumer,Seed,https://www.linkedin.com/company/ketonatural-pet-foods,Educating and empowering pet owners,"181 E Edith Ave, Salt Lake City, UT",Salt Lake City,Salt Lake,Actively Hiring,,40.739032,-111.916273
Kolla,https://www.getkolla.com,2-10,B2B Software,Seed,https://www.linkedin.com/company/getkolla,Centralized operations for DSOs,"276 East 12200 South, Draper, UT",Draper,Salt Lake,Actively Hiring,,40.727183,-111.923065
Krado,https://www.krado.co,2-10,Consumer,Seed,https://www.linkedin.com/company/kradoinc,Integrative plantcare system via real-time data,"2223 South Highland Drive, Salt Lake City, UT",Salt Lake City,Salt Lake,Actively Hiring,,40.72888,-111.917643
Leash Bio,https://www.leash.bio,2-10,Bio/Medical Tech,Seed,https://www.linkedin.com/company/leash-laboratories,High-quality ML datasets for drug discovery,"48 South Rio Grande Street, Salt Lake City, UT",Salt Lake City,Salt Lake,Actively Hiring,,40.771655,-111.90722
Leeway,https://www.leewayhq.com,2-10,B2B Software,Seed,https://www.linkedin.com/company/leewayhq,Modern benefits administration (ICHRA),"1920 Blaine Avenue, Salt Lake City, UT",Salt Lake City,Salt Lake,Actively Hiring,,40.750414,-111.925859
Literal,https://www.literalapp.com,2-10,B2B Software,Series A,https://www.linkedin.com/company/literalapp,Reading community engagement platform,"1555 Freedom Boulevard, Provo, UT",Provo,Utah,Actively Hiring,,40.278258,-111.642201
LooLoo,https://www.getlooloo.com,2-10,Consumer,Seed,https://www.linkedin.com/company/looloo-us,Automatic toilet freshener with essential oils,"12101 State Street, Draper, UT",Draper,Salt Lake,Actively Hiring,,40.772643,-111.877904
Masset,https://www.getmasset.com,2-10,B2B Software,Seed,https://www.linkedin.com/company/massetai,Turn B2B content into revenue,"815 South East Mountain Circle, Alpine, UT",Alpine,Utah,Actively Hiring,,40.270591,-111.667105
Mindsmith,https://www.mindsmith.ai,2-10,B2B Software,Seed,https://www.linkedin.com/company/mindsmith1,eLearning authoring tool using generative AI,"800 West University Parkway, Orem, UT",Orem,Utah,Actively Hiring,,40.269972,-111.709065
NanoSpot.ai,https://www.nanospot.ai,2-10,Bio/Medical Tech,Seed,https://www.linkedin.com/company/nanospot-ai,Rapid point-of-care testing using AI,"630 South Komas Drive, Salt Lake City, UT",Salt Lake City,Salt Lake,Actively Hiring,,40.799962,-111.8742
Nodal Power,https://www.nodalpower.com,2-10,Energy,Seed,https://www.linkedin.com/company/nodal-power,Renewable energy using landfill biogas,"250 E 200 S, Salt Lake City, UT",Salt Lake City,Salt Lake,Actively Hiring,,40.765356,-111.868846
Pageport,https://www.pageport.com,2-10,B2B Software,Seed,https://www.linkedin.com/company/pageport,Hyper-personalized landing pages,"272 North 100 East, American Fork, UT",American Fork,Utah,Actively Hiring,,40.324328,-111.66148
Pale Blue,https://www.paleblueearth.com,2-10,Consumer,Seed,https://www.linkedin.com/company/pale-blue-earth,Rechargeable batteries replacing disposables,"2750 Rassmussen Road, Park City, UT",Park City,Summit,Actively Hiring,,40.839424,-111.055248
Parakeet Financial,https://www.parakeetfinancial.com,2-10,B2B Software,Seed,https://www.linkedin.com/company/parakeet-financial,Compliance automation and risk management,"Midvale, UT",,Salt Lake,Actively Hiring,,40.746036,-111.918871
Pyrofex,https://pyrofex.net,2-10,B2B Software,Seed,https://www.linkedin.com/company/pyrofex,Next-generation blockchain platforms,"4692 N 300 W, Orem, UT",Orem,Utah,Actively Hiring,,40.273779,-111.641451
SignalHero,https://www.signalhero.io,2-10,B2B Software,Seed,https://www.linkedin.com/company/signalhero,"AI for retention, cross-sell, upsell","2376 East 3395 South, Salt Lake City, UT",Salt Lake City,Salt Lake,Actively Hiring,,40.790909,-111.913239
Roger,https://www.tryroger.com,2-10,B2B Software,Seed,https://www.linkedin.com/company/iristechs,Construction collaboration workspace,"1441 Perry Avenue, Salt Lake City, UT",Salt Lake City,Salt Lake,Actively Hiring,,40.773235,-111.903524
Slipstream Medical,https://www.slipstreammedical.com,2-10,Bio/Medical Tech,Series A,https://www.linkedin.com/company/slipstream-medical,Stiletto intermediate-dwell catheter,"299 South Main Street, Salt Lake City, UT",Salt Lake City,Salt Lake,Actively Hiring,,40.793964,-111.895938
StreamOS,https://www.streamos.io,2-10,FinTech,Seed,https://www.linkedin.com/company/stream-os,Automated configurable platform for finance teams,"Salt Lake City, UT",,Salt Lake,Actively Hiring,,40.74199,-111.921405
stumbl,https://www.stumbl.com,2-10,Consumer,Seed,https://www.linkedin.com/company/stumblofficial,Marketplace to discover designer bargains,"5526 West 13400 South, Herriman, UT",Herriman,Salt Lake,Actively Hiring,,40.765709,-111.919471
Swyf,https://www.swyf.app,2-10,FinTech,Seed,https://www.linkedin.com/company/swyf-inc,Simple finance tools for accessible options,"Salt Lake City, UT",,Salt Lake,Actively Hiring,,40.767567,-111.843261
Treads,https://www.treads.app,2-10,Consumer,Seed,https://www.linkedin.com/company/gettreads,AI-powered car management subscription,"1090 Center Drive, Park City, UT",Park City,Summit,Actively Hiring,,40.853052,-111.032782
Upkid,https://www.upkid.com,2-10,Marketplaces,Seed,https://www.linkedin.com/company/upkid,Solving the child care shortage in America,"3450 Triumph Boulevard, Lehi, UT",Lehi,Utah,Actively Hiring,,40.336703,-111.693457
Viori,https://www.viori.com,2-10,Consumer,Seed,https://www.linkedin.com/company/viori-beauty,Natural cosmetics honoring Red Yao traditions,"1123 North 1430 West, Orem, UT",Orem,Utah,Actively Hiring,,40.264173,-111.748946
Yoodlize,https://www.yoodlize.com,2-10,Consumer,Seed,https://www.linkedin.com/company/yoodlize,Peer-to-peer rental platform,"826 South Carterville Road, Orem, UT",Orem,Utah,Actively Hiring,,40.265672,-111.679306
Zaymo,https://www.zaymo.com,2-10,B2B Software,Seed,https://www.linkedin.com/company/getzaymo,eCommerce in-email shopping,"560 South 100 West, Provo, UT",Provo,Utah,Actively Hiring,,40.320266,-111.703941
After.com,https://www.after.com,11-50,Consumer,Series A,https://www.linkedin.com/company/after-com,New home for funerals online,"560 South 100 West, Provo, UT",Provo,Utah,Actively Hiring,,40.261982,-111.708806
Applause,https://www.applausehq.com,11-50,B2B Software,Series A,https://www.linkedin.com/company/applausehq,Supercharge team performance,"5442 South 900 East, Salt Lake City, UT",Salt Lake City,Salt Lake,Actively Hiring,,40.80049,-111.887506
Attestiv,https://www.attestiv.com,11-50,Security,Seed,https://www.linkedin.com/company/attestiv,Authenticity verification for photos/videos/docs,"2701 North Thanksgiving Way, Lehi, UT",Lehi,Utah,Actively Hiring,,40.334586,-111.651306
Awsm,https://www.awsm.com,11-50,FinTech,Seed,https://www.linkedin.com/company/realawsm,Share equity with employees and customers,,,Salt Lake,Actively Hiring,,40.721718,-111.864513
Boostly,https://www.boostly.com,11-50,B2B Software,Seed,https://www.linkedin.com/company/goboostly,Text marketing for restaurants,"560 South 100 West, Provo, UT",Provo,Utah,Actively Hiring,,40.311437,-111.690164
Brite,https://www.britebenefits.com,11-50,B2B Software,Series A,https://www.linkedin.com/company/getbritehr,Benefits education software,"341 South Main Street Floor, Salt Lake City, UT",Salt Lake City,Salt Lake,Actively Hiring,,40.742146,-111.874085
Brooksee,https://www.brooksee.com,11-50,B2B Software,Seed,https://www.linkedin.com/company/brooksee,Endurance events and timing technology,"374 South 671 West, Pleasant Grove, UT",Pleasant Grove,Utah,Actively Hiring,,40.265824,-111.702428
Built for Teams,https://www.builtapp.com,11-50,B2B Software,Seed,https://www.linkedin.com/company/builtforteams,Position Intelligence platform,"155 North 400 West, Salt Lake City, UT",Salt Lake City,Salt Lake,Actively Hiring,,40.757098,-111.836542
Cardagraph,https://www.cardagraph.com,11-50,B2B Software,Seed,https://www.linkedin.com/company/cardagraph,AI-powered product release roadmapping,"2961 Maple Loop Drive, Lehi, UT",Lehi,Utah,Actively Hiring,,40.326968,-111.722993
Cinch,https://www.cinch.io,11-50,B2B Software,Seed,https://www.linkedin.com/company/cinchplatform,Marketing automation platform,"67 W 13490, Draper, UT",Draper,Salt Lake,Actively Hiring,,40.760847,-111.929562
Cloud Storage Security,https://cloudstoragesecurity.com,11-50,Security,Series B,https://www.linkedin.com/company/cloud-storage-security,Protects data in cloud and on-premises,"1944 East Ashley Mesa Lane, Sandy, UT",Sandy,Salt Lake,Actively Hiring,,40.79381,-111.846538
Continuum,https://joincontinuum.com,11-50,B2B Software,Series A,https://www.linkedin.com/company/joincontinuum,Fractional executive marketplace,"2845 East 3365 South, Salt Lake City, UT",Salt Lake City,Salt Lake,Actively Hiring,,40.744676,-111.874326
Droplet,https://www.droplet.io,11-50,B2B Software,Seed,https://www.linkedin.com/company/dropletforms,Eliminate paper documents with e-signatures,"2701 North Thanksgiving Way, Lehi, UT",Lehi,Utah,Actively Hiring,,40.305618,-111.736259
Elements,https://www.getelements.com,11-50,FinTech,Seed,https://www.linkedin.com/company/getelements,Tools for financial planning firms,"879 Baxter Drive, South Jordan, UT",South Jordan,Salt Lake,Actively Hiring,,40.781801,-111.886275
Ember,https://www.emberhome.com,11-50,Consumer,Series A,https://www.linkedin.com/company/emberhome,Reimagining vacation home experience,"1850 W Ashton Blvd, Lehi, UT",Lehi,Utah,Actively Hiring,,40.31919,-111.690958
Flowell,https://www.flowell.co,11-50,Consumer,Seed,https://www.linkedin.com/company/flowell-inc,Helps health coaches land jobs,"419 East Coatsville Avenue, Salt Lake City, UT",Salt Lake City,Salt Lake,Actively Hiring,,40.720846,-111.912101
FluentWorlds,https://www.fluentworlds.com,11-50,B2B Software,Seed,https://www.linkedin.com/company/fluentworlds,Immersive 3D e-learning with AI,"3317 North Cottonwood Lane, Provo, UT",Provo,Utah,Actively Hiring,,40.258458,-111.643108
Gauge,https://www.sellgauge.com,11-50,Consumer,Seed,https://www.linkedin.com/company/sellgauge,Competitive bidding process for vehicles,"332 East 3300 South, Salt Lake City, UT",Salt Lake City,Salt Lake,Actively Hiring,,40.791098,-111.8512
Halda,https://www.halda.ai,11-50,B2B Software,Seed,https://www.linkedin.com/company/heyhalda,Enrollment marketing for universities,"560 South 100 West, Provo, UT",Provo,Utah,Actively Hiring,,40.281501,-111.747649
Halosight,https://www.halosight.com,11-50,B2B Software,Series A,https://www.linkedin.com/company/halosight,AI for account managers and customer advisors,"13 West Wasatch Street, Midvale, UT",Midvale,Salt Lake,Actively Hiring,,40.791041,-111.837366
Leland,https://www.joinleland.com,11-50,Marketplaces,Series A,https://www.linkedin.com/company/joinleland,Marketplace for coaching and career goals,"2701 North Thanksgiving Way, Lehi, UT",Lehi,Utah,Actively Hiring,,40.263752,-111.696281
Limit Break,https://www.limitbreak.com,11-50,Consumer,Series B,https://www.linkedin.com/company/limit-break,Web3 and creativity for connections,"6300 North Sagewood Drive, Park City, UT",Park City,Summit,Actively Hiring,,40.826637,-110.967828
Metrodora Institute,https://www.metrodora.co,11-50,Bio/Medical Tech,Seed,https://www.linkedin.com/company/metrodorainstitute,Care and diagnostics for multisystem disorders,"3535 South Market Street, West Valley City, UT",West Valley City,Salt Lake,Actively Hiring,,40.782067,-111.935593
Mobly,https://www.getmobly.com,11-50,B2B Software,Seed,https://www.linkedin.com/company/getmobly,Event-agnostic lead capture app,"2801 N Thanksgiving Way, Lehi, UT",Lehi,Utah,Actively Hiring,,40.294923,-111.688624
Modal Living,https://www.livemodal.com,11-50,Consumer,Seed,https://www.linkedin.com/company/livemodal,ADUs designed to your needs,"150 South State Street, Salt Lake City, UT",Salt Lake City,Salt Lake,Actively Hiring,,40.742005,-111.846308
Monarx,https://www.monarx.com,11-50,Security,Series A,https://www.linkedin.com/company/monarx,Malware protection for web hosts,"8 East Broadway, Salt Lake City, UT",Salt Lake City,Salt Lake,Actively Hiring,,40.754651,-111.925584
MotionOps,https://www.motionops.com,11-50,B2B Software,Seed,https://www.linkedin.com/company/motionops,Streamlining home services industry,"15 West Scenic Point Drive, Draper, UT",Draper,Salt Lake,Actively Hiring,,40.763944,-111.863408
Nomyx,https://www.nomyx.io,11-50,FinTech,Seed,https://www.linkedin.com/company/nomyx,Financial institutions technology solutions,,,Salt Lake,Actively Hiring,,40.736892,-111.913594
Oka,https://carboninsurance.co,11-50,B2B Software,Series A,https://www.linkedin.com/company/oka-the-carbon-insurance-company,Carbon credits insurance,"1389 Center Drive, Park City, UT",Park City,Summit,Actively Hiring,,40.900712,-110.981115
OliverIQ,https://www.oliveriq.com,11-50,B2B Software,Seed,https://www.linkedin.com/company/oliveriq,Smart Home as a Service,"8911 South Sandy Parkway, Sandy, UT",Sandy,Salt Lake,Actively Hiring,,40.755848,-111.888891
Olumo,https://www.olumo.com,11-50,B2B Software,Seed,https://www.linkedin.com/company/olumo,"Quick, cost-effective problem solving","2701 North Thanksgiving Way 100, Lehi, UT",Lehi,Utah,Actively Hiring,,40.26658,-111.727636
Ovation,https://www.ovationup.com,11-50,B2B Software,Series A,https://www.linkedin.com/company/ovationup,Guest experience platform for restaurants,"75 West University Parkway, Orem, UT",Orem,Utah,Actively Hiring,,40.283947,-111.684003
Paiv,https://www.paiv.ai,11-50,B2B Software,Seed,https://www.linkedin.com/company/gogamify,Field sales and service management platform,"1633 West Innovation Way, Lehi, UT",Lehi,Utah,Actively Hiring,,40.275309,-111.728174
Paramify,https://www.paramify.com,11-50,B2B Software,Seed,https://www.linkedin.com/company/paramify,Build enterprise security programs,"1555 North Freedom Boulevard 200 West, Provo, UT",Provo,Utah,Actively Hiring,,40.262579,-111.678868
Particl,https://www.particl.com,11-50,B2B Software,Series A,https://www.linkedin.com/company/getparticl,Data-driven e-commerce analysis,"1300 West 11400 Street, South Jordan, UT",South Jordan,Salt Lake,Actively Hiring,,40.739115,-111.84235
Paterna BioSciences,https://www.paternabio.com,11-50,Bio/Medical Tech,Seed,https://www.linkedin.com/company/paternabiosciences,Biotechnology for male infertility,"2749 East Parleys Way, Salt Lake City, UT",Salt Lake City,Salt Lake,Actively Hiring,,40.789571,-111.942497
Paykeeper,https://www.paykeeper.com,11-50,FinTech,Series A,https://www.linkedin.com/company/paykeeper,Escrow for everyday transactions,"893 Baxter Drive, South Jordan, UT",South Jordan,Salt Lake,Actively Hiring,,40.73984,-111.870723
Pestie,https://www.pestie.com,11-50,Consumer,Series A,https://www.linkedin.com/company/pestie,Pro-grade pest control easy and affordable,"920 W 14600 S Suite 600, Bluffdale, UT",Bluffdale,Salt Lake,Actively Hiring,,40.737939,-111.935123
Plotline,https://www.plotline.so,11-50,B2B Software,Seed,https://www.linkedin.com/company/plot-line,Mobile adoption platform for apps,,,Salt Lake,Actively Hiring,,40.795641,-111.882475
Powder Watts,https://www.powderwatts.com,11-50,Energy,Seed,https://www.linkedin.com/company/powderwatts,NSF-funded electric load management,"2570 Rasmussen Road, Park City, UT",Park City,Summit,Actively Hiring,,40.858914,-110.964946
Qualiti,https://www.qualiti.ai,11-50,B2B Software,Seed,https://www.linkedin.com/company/qualiti,AI-driven platform for test automation,"2701 North Thanksgiving Way, Lehi, UT",Lehi,Utah,Actively Hiring,,40.3215,-111.731751
Rasa,https://www.rasa-legal.com,11-50,B2B Software,Seed,https://www.linkedin.com/company/rasa-legal,Clear criminal records via technology,"180 East 2100 South, Salt Lake City, UT",Salt Lake City,Salt Lake,Actively Hiring,,40.728554,-111.899274
ReferPro,https://www.getrefer.pro,11-50,B2B Software,Seed,https://www.linkedin.com/company/refer-pro,Automated referral platform,"1633 West Innovation Way, Lehi, UT",Lehi,Utah,Actively Hiring,,40.290786,-111.698557
Ripe,https://bookripe.com,11-50,B2B Software,Seed,https://www.linkedin.com/company/rootrez,White-label lodging e-commerce,"650 South 500 West, Salt Lake City, UT",Salt Lake City,Salt Lake,Actively Hiring,,40.779126,-111.870196
Roster,https://www.getroster.com,11-50,B2B Software,Seed,https://www.linkedin.com/company/getroster,Turning customers into sales force,"2701 North Thanksgiving Way, Lehi, UT",Lehi,Utah,Actively Hiring,,40.335633,-111.74279
SABX,https://www.sabx.com,11-50,B2B Software,Series A,https://www.linkedin.com/company/sabx,Order management processes online,"1389 Center Drive, Park City, UT",Park City,Summit,Actively Hiring,,40.85331,-111.018384
Safety Mojo,https://www.getmojo.ai,11-50,B2B Software,Series A,https://www.linkedin.com/company/get-mojo-ai,Improve safety behavior,"10011 South Centennial Parkway, Sandy, UT",Sandy,Salt Lake,Actively Hiring,,40.789734,-111.921161
Salad,https://www.salad.com,11-50,B2B Software,Series A,https://www.linkedin.com/company/salad-technologies,Connects consumer GPUs to AI companies,"26 South Rio Grande Street, Salt Lake City, UT",Salt Lake City,Salt Lake,Actively Hiring,,40.736017,-111.897166
Sameday,https://gosameday.com,11-50,B2B Software,Seed,https://www.linkedin.com/company/samedayservices,AI Virtual Sales Agents for services,"1557 West Innovation Way, Lehi, UT",Lehi,Utah,Actively Hiring,,40.290651,-111.721175
Savvos,https://www.savvos.com,11-50,Bio/Medical Tech,Seed,https://www.linkedin.com/company/savvos,"Find price, schedule care, simplify payment","629 East Quality Drive, American Fork, UT",American Fork,Utah,Actively Hiring,,40.276885,-111.643808
SchoolAI,https://www.schoolai.com,11-50,B2B Software,Series A,https://www.linkedin.com/company/getschoolai,AI-powered tools for K-12 education,"1441 W Innovation Way, Lehi, UT",Lehi,Utah,Actively Hiring,,40.29235,-111.651238
Seis,https://www.seis.com,11-50,FinTech,Series A,https://www.linkedin.com/company/seis-card,Banking 100% in Spanish,"1557 West Innovation Way, Lehi, UT",Lehi,Utah,Actively Hiring,,40.300926,-111.748529
Skill Struck,https://www.skillstruck.com,11-50,B2B Software,Seed,https://www.linkedin.com/company/skill-struck,Computer Science and AI for K-12,"629 East Quality Drive, American Fork, UT",American Fork,Utah,Actively Hiring,,40.336843,-111.654277
Syncware,https://www.syncware.com,11-50,B2B Software,Seed,https://www.linkedin.com/company/getsyncware,"Sync orders, inventory, fulfillment","6300 Sagewood Drive, Park City, UT",Park City,Summit,Actively Hiring,,40.89862,-110.947936
Tellus,https://www.tellusensors.com,11-50,Energy,Seed,https://www.linkedin.com/company/tellus-sensors,Air quality sensor technology,"2319 South Foothill Drive, Salt Lake City, UT",Salt Lake City,Salt Lake,Actively Hiring,,40.788696,-111.931043
Troomi,https://www.troomi.com,11-50,Consumer,Seed,https://www.linkedin.com/company/troomi,Safe phones for kids,"3300 Triumph Boulevard, Lehi, UT",Lehi,Utah,Actively Hiring,,40.295751,-111.72895
Velocity Access,https://www.velocityaccess.io,11-50,B2B Software,Seed,https://www.linkedin.com/company/velocity-access,Advanced ticketing software,"412 West Rivers Edge Drive, Provo, UT",Provo,Utah,Actively Hiring,,40.288983,-111.747564
Velosimo,https://www.velosimo.com,11-50,B2B Software,Series A,https://www.linkedin.com/company/velosimoinc,No-code integration connectors,"12537 South Brundisi Way, Herriman, UT",Herriman,Salt Lake,Actively Hiring,,40.751118,-111.832763
Videra Health,https://www.viderahealth.com,11-50,Bio/Medical Tech,Seed,https://www.linkedin.com/company/viderahealth,AI-driven mental health assessment platform,"898 North 1200 West, Orem, UT",Orem,Utah,Actively Hiring,,40.278116,-111.660512
Wander,https://www.wandermaps.com,11-50,Consumer,Seed,https://www.linkedin.com/company/wander-app-inc,One-app interactive mapping replacement,"1083 Terrace Drive, Provo, UT",Provo,Utah,Actively Hiring,,40.293301,-111.703839
Wasatch BioLabs,https://www.wasatchbiolabs.com,11-50,Bio/Medical Tech,Seed,https://www.linkedin.com/company/wasatch-biolabs,Innovative approach to diagnostics,"321 West 1300 South, Heber City, UT",Heber City,Wasatch,Actively Hiring,,40.501785,-111.224049
Xenter,https://www.xenter.io,11-50,Bio/Medical Tech,Series B,https://www.linkedin.com/company/xenter-corp,Wireless technology in medicine ecosystem,"344 West 13800 South, Draper, UT",Draper,Salt Lake,Actively Hiring,,40.765261,-111.864791
Zanskar,https://www.zanskar.com,11-50,Energy,Series B,https://www.linkedin.com/company/zanskar,Geothermal power most affordable,"90 South 400 West, Salt Lake City, UT",Salt Lake City,Salt Lake,Actively Hiring,,40.733184,-111.915395
Zapmoto,https://www.zapmoto.com,11-50,B2B Software,Seed,https://www.linkedin.com/company/zapmoto,Pickup and dropoff for car service,"11779 Pennbrooke Lane, Highland, UT",Highland,Salt Lake,Actively Hiring,,40.798297,-111.881498
Alianza,https://www.alianza.com,201-500,B2B Software,Series D+,https://www.linkedin.com/company/alianza,Cloud-native carrier-grade comms platform,"1064 South North County Boulevard, Pleasant Grove, UT",Pleasant Grove,Utah,Actively Hiring,,40.300276,-111.664843
Blue Eye,https://www.goblueeye.com,201-500,Security,Seed,https://www.linkedin.com/company/go-blue-eye,Modern video surveillance alternative,"15 W South Temple, Salt Lake City, UT",Salt Lake City,Salt Lake,Actively Hiring,,40.725373,-111.880899
Cotopaxi,https://www.cotopaxi.com,201-500,Consumer,Series C,https://www.linkedin.com/company/cotopaxi-com,Outdoor products to alleviate poverty,"74 Main Street, Salt Lake City, UT",Salt Lake City,Salt Lake,Actively Hiring,,40.761028,-111.848674
Cupbop,https://www.cupbop.com,201-500,Consumer,Seed,https://www.linkedin.com/company/cupbop,Korean BBQ in a Cup,"593 E 12300 S Ste B, Draper, UT",Draper,Salt Lake,Actively Hiring,,40.733395,-111.835707
Gabb Wireless,https://www.gabb.com,201-500,Consumer,Series A,https://www.linkedin.com/company/gabb-wireless,Age-appropriate tech for children,"2701 North Thanksgiving Way, Lehi, UT",Lehi,Utah,Actively Hiring,,40.263309,-111.732301
Homie,https://www.homie.com,201-500,B2B Software,Series C,https://www.linkedin.com/company/homie-com,Tech-enabled real estate,"489 South Jordan Parkway, South Jordan, UT",South Jordan,Salt Lake,Actively Hiring,,40.768403,-111.869974
Pura,https://www.pura.com,201-500,Consumer,Series A,https://www.linkedin.com/company/pura-scents,Smart fragrance brand,"2100 Pleasant Grove Boulevard, Pleasant Grove, UT",Pleasant Grove,Utah,Actively Hiring,,40.275716,-111.740214
Route,https://www.route.com,201-500,B2B Software,Series C,https://www.linkedin.com/company/route-app,Post-purchase experience solution,"1441 West Innovation Way, Lehi, UT",Lehi,Utah,Actively Hiring,,40.328123,-111.725054
Solo,https://www.gosolo.io,201-500,B2B Software,Series C,https://www.linkedin.com/company/solo-backoffice,Back-office solution for contractors,"3049 Executive Parkway, Lehi, UT",Lehi,Utah,Actively Hiring,,40.304462,-111.680274
Vanderhall,https://www.vanderhallusa.com,201-500,Consumer,Series C,https://www.linkedin.com/company/vanderhall-motor-works-inc.,Unique roadsters with modern performance,"3500 Mountain Vista Parkway, Provo, UT",Provo,Utah,Actively Hiring,,40.290438,-111.684559
Nomi Health,https://www.nomihealth.com,501-1K,Bio/Medical Tech,Series B,https://www.linkedin.com/company/nomi-health,Rebuilding healthcare with technology,"898 North 1200 West, Orem, UT",Orem,Utah,Actively Hiring,,40.298723,-111.642435
American Battery Factory,https://www.americanbatteryfactory.com,51-200,Energy,Series A,https://www.linkedin.com/company/american-battery-factory-inc,LFP battery cells manufacturing network,"735 Auto Mall Drive, American Fork, UT",American Fork,Utah,Actively Hiring,,40.273241,-111.668657
Atomic,https://www.atomic.financial,51-200,FinTech,Series C,https://www.linkedin.com/company/atomic-fi,Financial connectivity platform,"2890 East Cottonwood Parkway, Cottonwood Heights, UT",Cottonwood Heights,Salt Lake,Actively Hiring,,40.739895,-111.903506
Bacon,https://www.baconwork.com,51-200,B2B Software,Series A,https://www.linkedin.com/company/bacon-inc,Connects businesses to local gig workers,"3715 Tracy Hall Parkway, Provo, UT",Provo,Utah,Actively Hiring,,40.310635,-111.7186
Bandwango,https://www.bandwango.com,51-200,Consumer,Seed,https://www.linkedin.com/company/bandwango,All-in-one experience builder platform,"6905 South 1300 East, Cottonwood Heights, UT",Cottonwood Heights,Salt Lake,Actively Hiring,,40.746094,-111.860776
Chargezoom,https://www.chargezoom.com,51-200,FinTech,Series A,https://www.linkedin.com/company/chargezoom,AI-powered Open Payments Platform,"6440 Millrock Drive, Salt Lake City, UT",Salt Lake City,Salt Lake,Actively Hiring,,40.726603,-111.896006
HeroDevs,https://www.herodevs.com,51-200,B2B Software,Series A,https://www.linkedin.com/company/herodevs,Life after end-of-life for open-source software,"9561 S 700 E, Sandy, UT",Sandy,Salt Lake,Actively Hiring,,40.800676,-111.831468
Hona,https://www.hona.com,51-200,B2B Software,Series A,https://www.linkedin.com/company/honasoftware,Law firm case update application,"553 Timpanogos Cir Suite 2300, Orem, UT",Orem,Utah,Actively Hiring,,40.262761,-111.729021
Hypercraft,https://www.hypercraftusa.com,51-200,Energy,Seed,https://www.linkedin.com/company/hypercraftusa,EV technology access,"1200 Towne Centre Boulevard, Provo, UT",Provo,Utah,Actively Hiring,,40.278116,-111.642609
iDrive Logistics,https://www.idrivelogistics.com,51-200,Consumer,Seed,https://www.linkedin.com/company/i-drive-logistics,Shipping and fulfillment solutions,"1850 Ashton Boulevard, Lehi, UT",Lehi,Utah,Actively Hiring,,40.327369,-111.649088
IsoTalent,https://www.isotalent.com,51-200,B2B Software,Seed,https://www.linkedin.com/company/isotalent,Full-service recruiting agency,"2600 Executive Parkway, Lehi, UT",Lehi,Utah,Actively Hiring,,40.286462,-111.73567
Music AI,https://www.music.ai,51-200,Consumer,Series A,https://www.linkedin.com/company/moises,AI-powered music and audio platform,"4001 South 700 East, Salt Lake City, UT",Salt Lake City,Salt Lake,Actively Hiring,,40.7875,-111.866575
Motivhealth,https://www.motivhealth.com,51-200,B2B Software,Seed,https://www.linkedin.com/company/motivhealth,Insurance solving high healthcare costs,"10421 South Jordan Gateway, South Jordan, UT",South Jordan,Salt Lake,Actively Hiring,,40.769734,-111.832532
Murf,https://www.murf.ai,51-200,B2B Software,Series A,https://www.linkedin.com/company/murf-ai,High-quality AI voice overs,"341 South Main Street, Salt Lake City, UT",Salt Lake City,Salt Lake,Actively Hiring,,40.773118,-111.950061
Nectar HR,https://www.nectarhr.com,51-200,B2B Software,Series B,https://www.linkedin.com/company/nectarhr,Build culture people won't leave,"1300 W Traverse Pkwy, Lehi, UT",Lehi,Utah,Actively Hiring,,40.322268,-111.718675
Nivati,https://www.nivati.com,51-200,B2B Software,Seed,https://www.linkedin.com/company/nivati-co,Multi-pronged wellness solution,"10808 South River Front Parkway, South Jordan, UT",South Jordan,Salt Lake,Actively Hiring,,40.773871,-111.838328
Nursa,https://www.nursa.com,51-200,Marketplaces,Series B,https://www.linkedin.com/company/nursaapp,Healthcare staffing connecting clinicians,"5295 Commerce Drive, Murray, UT",Murray,Salt Lake,Actively Hiring,,40.731543,-111.937149
Pillow Cube,https://www.pillowcube.com,51-200,Consumer,Series A,https://www.linkedin.com/company/pillow-cube,Pillow designed for side sleepers,"1815 S State St, Orem, UT",Orem,Utah,Actively Hiring,,40.265463,-111.688213
Project Solar,https://www.projectsolar.com,51-200,Consumer,Series A,https://www.linkedin.com/company/project-solar,E-commerce platform for solar,"1850 West Ashton Boulevard, Lehi, UT",Lehi,Utah,Actively Hiring,,40.278688,-111.68202
Redo,https://www.getredo.com,51-200,B2B Software,Series A,https://www.linkedin.com/company/redo-tech,Crush cart abandonment,"14761 Future Way, Draper, UT",Draper,Salt Lake,Actively Hiring,,40.778209,-111.926568
Remi,https://www.remihq.com,51-200,B2B Software,Series A,https://www.linkedin.com/company/remilabs,Find roofers more roofs,"1800 Ashton Boulevard, Lehi, UT",Lehi,Utah,Actively Hiring,,40.307639,-111.722922
Rivet Health,https://www.rivethealth.com,51-200,B2B Software,Series B,https://www.linkedin.com/company/rivethealth,Software for cost answers from providers,"9815 S Monroe Street, Sandy, UT",Sandy,Salt Lake,Actively Hiring,,40.759883,-111.84236
Stay AI,https://www.stay.ai,51-200,B2B Software,Series A,https://www.linkedin.com/company/stayai,Subscription management for DTC brands,"3209 Daybreaker Drive, Park City, UT",Park City,Summit,Actively Hiring,,40.888788,-111.048024
Strider,https://www.striderintel.com,51-200,Security,Series C,https://www.linkedin.com/company/teamstrider,Protect innovation and compete,"10377 South Jordan Gateway, South Jordan, UT",South Jordan,Salt Lake,Actively Hiring,,40.754686,-111.917798
Tava Health,https://www.tavahealth.com,51-200,Bio/Medical Tech,Series B,https://www.linkedin.com/company/tava-health,Mental health benefit for employees,"645 South 200 East, Salt Lake City, UT",Salt Lake City,Salt Lake,Actively Hiring,,40.721084,-111.858466
The Picklr,https://www.thepicklr.com,51-200,Consumer,Series B,https://www.linkedin.com/company/thepicklr,Fastest-growing pickleball courts network,"559 South Deseret Drive, Kaysville, UT",Kaysville,Davis,Actively Hiring,,41.004769,-111.918565
Torus,https://www.torus.co,51-200,Energy,Series A,https://www.linkedin.com/company/torusrev,Renewable energy provider empowerment,"855 West 2400 South, Salt Lake City, UT",Salt Lake City,Salt Lake,Actively Hiring,,40.780098,-111.884798
Vanilla,https://www.justvanilla.com,51-200,FinTech,Series B,https://www.linkedin.com/company/justvanilla,Estate Advisory Platform,"310 South Main Street, Salt Lake City, UT",Salt Lake City,Salt Lake,Actively Hiring,,40.755015,-111.94984
Voze,https://www.voze.com,51-200,B2B Software,Series A,https://www.linkedin.com/company/usevoze,Timely sales rep notes,"44 W 13800 S, Draper, UT",Draper,Salt Lake,Actively Hiring,,40.72682,-111.845027
Xevant,https://www.xevant.com,51-200,B2B Software,Series D+,https://www.linkedin.com/company/xevant,Actionable insights on drug costs,"3400 North Ashton Boulevard, Lehi, UT",Lehi,Utah,Actively Hiring,,40.329214,-111.689129
Zartico,https://www.zartico.com,51-200,B2B Software,Series A,https://www.linkedin.com/company/zartico,Marketing performance solutions,"26 South Rio Grande Street, Salt Lake City, UT",Salt Lake City,Salt Lake,Actively Hiring,,40.787568,-111.881099
3Helix,https://www.3helix.com,2-10,Bio/Medical Tech,Seed,https://www.linkedin.com/company/3helix-inc,Collagen targeting technology,"650 Komas Drive, Salt Lake City, UT",Salt Lake City,Salt Lake,Actively Hiring,,40.732648,-111.935707
DrumCV,https://www.drumcv.com,2-10,B2B Software,Seed,https://www.linkedin.com/company/drumcv,AI-powered support dispositions,"2022 Tuscany Way, Pleasant Grove, UT",Pleasant Grove,Utah,Actively Hiring,,40.281561,-111.646722
Canopy Tax,https://www.getcanopy.com,51-200,B2B Software,Series C,https://www.linkedin.com/company/canopy-inc,Accounting practice management software,"10355 S Jordan Gateway Suite 500, South Jordan, UT",South Jordan,Salt Lake,Actively Hiring,,40.78449,-111.847716
ObservePoint,https://www.observepoint.com,51-200,Security,Series B,https://www.linkedin.com/company/observepoint,Ensure privacy compliance standards,"2100 Pleasant Grove Blvd #300, Pleasant Grove, UT",Pleasant Grove,Utah,Actively Hiring,,40.328814,-111.729391
MX,https://www.mx.com,501-1K,FinTech,Series D+,https://www.linkedin.com/company/mxenabled,Financial data connectivity platform,"3401 N Thanksgiving Way #500, Lehi, UT",Lehi,Utah,Actively Hiring,,40.276862,-111.742265
Neighbor,https://www.neighbor.com,51-200,Marketplaces,Series B,https://www.linkedin.com/company/neighbor,Peer-to-peer storage company,"2600 Executive Pkwy Suite 550, Lehi, UT",Lehi,Utah,Actively Hiring,,40.319309,-111.648504
BookClub,https://www.bookclub.com,11-50,B2B Software,Series A,https://www.linkedin.com/company/bookclubdotcom,Books into interactive experiences,"7533 Center View Ct #4134, West Jordan, UT",West Jordan,Salt Lake,Actively Hiring,,40.75331,-111.876521
Liveview Technologies,https://www.lvt.com,501-1K,Security,Series B,https://www.linkedin.com/company/lvt,Rapidly-deployable surveillance hardware,"802 E 1050 S, American Fork, UT",American Fork,Utah,Actively Hiring,,40.269264,-111.643014
Lucid,https://lucid.co,1K-5K,B2B Software,Series D+,https://www.linkedin.com/company/lucidsoftware,Visual collaboration suite,"10355 S Jordan Gateway #300, South Jordan, UT",South Jordan,Salt Lake,Actively Hiring,,40.789968,-111.833855
Jump,https://jumpapp.com,11-50,B2B Software,Seed,https://www.linkedin.com/company/jump-app-ai,AI tool for wealth managers,"14761 Future Way, Draper, UT",Draper,Salt Lake,Actively Hiring,,40.785662,-111.84523
Previ,https://previ.com,11-50,B2B Software,Seed,https://www.linkedin.com/company/previbenefit,Employees save on cell phone bill,"3400 Ashton Blvd #160, Lehi, UT",Lehi,Utah,Actively Hiring,,40.258883,-111.666212
Alpyne,https://www.getalpyne.com,2-10,B2B Software,Pre-Seed,https://www.linkedin.com/company/getalpyne,Fractional CFOs with complete control,"3585 E Ceres Dr, Salt Lake City, UT",Salt Lake City,Salt Lake,Actively Hiring,,40.747375,-111.839302
Distro,https://distro.io,2-10,Marketplaces,Seed,https://www.linkedin.com/company/distroio,Find and match top quality talent,"550 West State Street, Lehi, UT",Lehi,Utah,Actively Hiring,,40.321079,-111.650912
Parallel,https://getparallel.com,2-10,B2B Software,Seed,https://www.linkedin.com/company/getparallel,Financial modeling platform,,,Salt Lake,Actively Hiring,,40.78566,-111.918983
Avy,https://www.avy.ai,11-50,B2B Software,Seed,https://www.linkedin.com/company/avy-ai-inc,Humans and computers working together,"6975 South Union Park Avenue, Cottonwood Heights, UT",Cottonwood Heights,Salt Lake,Actively Hiring,,40.78379,-111.938029
Awardco,https://www.award.co,501-1K,B2B Software,Series A,https://www.linkedin.com/company/awardco,Recognition and rewards platform,"2080 W 400 N, Lindon, UT",Lindon,Utah,Actively Hiring,,40.326673,-111.651569
Filevine,https://www.filevine.com,501-1K,B2B Software,Series D+,https://www.linkedin.com/company/filevine,Changing how legal work gets done,"1260 Stringham Ave, Salt Lake City, UT",Salt Lake City,Salt Lake,Actively Hiring,,40.738595,-111.85301
Snoball,https://snoball.com,11-50,B2B Software,Series B,https://www.linkedin.com/company/snoballplatform,"Word of Mouth Marketing, done for you","1064 S N County Blvd Suite 300, Pleasant Grove, UT",Pleasant Grove,Utah,Actively Hiring,,40.293724,-111.717977
DeepSee,https://deepsee.ai,11-50,B2B Software,Series A,https://www.linkedin.com/company/deepsee,Knowledge Process Automation platform,"13907 S Minuteman Drive, Draper, UT",Draper,Salt Lake,Actively Hiring,,40.784428,-111.923689
AskElephant,https://www.askelephant.ai,11-50,B2B Software,Pre-Seed,https://www.linkedin.com/company/askelephant,AI-powered platform automating workflows,"12459 S 300 E Suite 102, Draper, UT",Draper,Salt Lake,Actively Hiring,,40.722693,-111.927824
Whistic,https://whistic.com,51-200,B2B Software,Series B,https://www.linkedin.com/company/whistic,Vendor assessments and customer trust,"1221 S Valley Grove Way #350, Pleasant Grove, UT",Pleasant Grove,Utah,Actively Hiring,,40.283161,-111.650878
Helperly,https://helperly.com,11-50,Consumer,Seed,https://www.linkedin.com/company/helperlycare,Transforming the way seniors age,"9547 S 700 E STE 201, Sandy, UT",Sandy,Salt Lake,Actively Hiring,,40.798151,-111.917505
Lendio,https://www.lendio.com,201-500,Marketplaces,Series D+,https://www.linkedin.com/company/lendio,Marketplace connecting businesses and lenders,"4100 Chapel Ridge Road Suite 500, Lehi, UT",Lehi,Utah,Actively Hiring,,40.308219,-111.706639
ControlQore,https://www.controlqore.com,2-10,FinTech,Pre-Seed,https://www.linkedin.com/company/controlqore,Financial management for construction,"905 N Marshall Way Suite C, Layton, UT",Layton,Davis,Actively Hiring,,41.032292,-111.885654
Kuali,https://www.kuali.co,51-200,B2B Software,Series D+,https://www.linkedin.com/company/kualico,Administrative SaaS for higher education,"3300 North Ashton Boulevard, Lehi, UT",Lehi,Utah,Actively Hiring,,40.332039,-111.740759
Carketa,https://carketa.com,11-50,B2B Software,Seed,https://www.linkedin.com/company/carketa,Automotive Data and Insights Platform,"3400 Ashton Blvd Suite 450, Lehi, UT",Lehi,Utah,Actively Hiring,,40.334532,-111.733172
Moneta,https://www.monetacloud.com,2-10,B2B Software,Seed,https://www.linkedin.com/company/monetacloud,Cloud Visibility and Cost Optimization,"350 East 400 South Suite 316, Salt Lake City, UT",Salt Lake City,Salt Lake,Actively Hiring,,40.797803,-111.919144
SponsorCX,https://sponsorcx.com,11-50,B2B Software,Series A,https://www.linkedin.com/company/sponsorcx,Sponsorship management platform,"3401 N Thanksgiving Way #190, Lehi, UT",Lehi,Utah,Actively Hiring,,40.265572,-111.702452
Mindless Labs,https://mindless.org,2-10,Consumer,Pre-Seed,https://www.linkedin.com/company/mindlesslabs,Mental health platform and movement,"1935 E. Vine Street Ste. 110, Salt Lake City, UT",Salt Lake City,Salt Lake,Actively Hiring,,40.779084,-111.913359
Benji Card,https://benjicard.com,2-10,FinTech,Pre-Seed,https://www.linkedin.com/company/benji-card,Innovative healthcare payment solutions,"1117 E Yard Row, Saratoga Springs, UT",Saratoga Springs,Utah,Actively Hiring,,40.305397,-111.693229
JobNimbus,https://www.jobnimbus.com,201-500,B2B Software,Series B,https://www.linkedin.com/company/jobnimbus,SaaS for home contractors,"3451 Triumph Blvd Suite 650, Lehi, UT",Lehi,Utah,Actively Hiring,,40.287716,-111.685409
Cove,https://covesmart.com,11-50,Security,Seed,https://www.linkedin.com/company/covesmart,DIY home security company,"14015 Minuteman Dr, Draper, UT",Draper,Salt Lake,Actively Hiring,,40.741178,-111.865946
Guard IQ,https://GuardIQ.com,2-10,B2B Software,Pre-Seed,https://www.linkedin.com/company/guard-iq,Venue management technology,"2575 W 400 N Suite 100B, Lindon, UT",Lindon,Utah,Actively Hiring,,40.257035,-111.643531
Enzo Health,https://www.enzo.health,11-50,B2B Software,Seed,https://www.linkedin.com/company/enzo-health,Automates documentation for healthcare facilities,"3300 Triumph Blvd Suites 100 and 200, Lehi, UT",Lehi,Utah,Actively Hiring,,40.299976,-111.668268
Pocketbook,https://pocketbk.com,2-10,B2B Software,Pre-Seed,https://www.linkedin.com/company/pocketbk,Reduce IT spend through negotiations,"1630 N 1770 E, Logan, UT",Logan,Cache,Actively Hiring,,41.756356,-111.749225
Zonos,https://zonos.com,51-200,B2B Software,Series A,https://www.linkedin.com/company/zonos,"International shipping, duty, taxes, fees","975 S Tech Ridge Dr, St. George, UT",St. George,Washington,Actively Hiring,,37.093238,-113.635703
Vasion,https://vasion.com,201-500,B2B Software,Series A,https://www.linkedin.com/company/vasion-software,Making Digital Transformation Attainable,"432 S Tech Ridge Dr, St. George, UT",St. George,Washington,Actively Hiring,,37.117239,-113.604476
Renew Biotechnologies,https://www.renewbt.com,11-50,Bio/Medical Tech,Series A,https://www.linkedin.com/company/renew-biotechnologies,Molecular diagnostics technologies,"412 W Rivers Edge Dr, Provo, UT",Provo,Utah,Actively Hiring,,40.282013,-111.652838
VIUS,https://viusbuilt.com,2-10,B2B Software,Pre-Seed,https://www.linkedin.com/company/viusbuilt,Construction management,"786 Divisions Road, Park City, UT",Park City,Summit,Actively Hiring,,40.87868,-111.023061
Fluid,https://www.fluid.app,51-200,B2B Software,Series A,https://www.linkedin.com/company/fluid-livefree,"E-commerce, sales, marketing for direct sales","139 Hunter's Grove Ln STE 207, Lehi, UT",Lehi,Utah,Actively Hiring,,40.281643,-111.705593
Trinsic,https://trinsic.id,2-10,B2B Software,Seed,https://www.linkedin.com/company/14820679,Identity verification and wallets,"2701 N Thanksgiving Way Ste 100, Lehi, UT",Lehi,Utah,Actively Hiring,,40.289092,-111.719121
Plansight,https://www.plansight.com,11-50,B2B Software,Series B,https://www.linkedin.com/company/plansight,Discover high-quality benefits,"2500 Executive Pkwy, Lehi, UT",Lehi,Utah,Actively Hiring,,40.267083,-111.704146
SalesRabbit,https://salesrabbit.com,51-200,B2B Software,Series D+,https://www.linkedin.com/company/salesrabbit,Field Sales Management Platform,"2000 Ashton Blvd #450, Lehi, UT",Lehi,Utah,Actively Hiring,,40.332129,-111.673322
Mallow,https://www.getmallow.com,2-10,B2B Software,Pre-Seed,https://www.linkedin.com/company/getmallow,Payments and eContracts Software,"St. George, UT",,Salt Lake,Actively Hiring,,40.793024,-111.877138
Listo Global,https://listoglobal.com,11-50,B2B Software,Seed,https://www.linkedin.com/company/listo-global,"Find, hire and pay global team",,,Salt Lake,Actively Hiring,,40.744876,-111.885248
Relay Health,https://www.joinrelay.app,2-10,Consumer,Seed,https://www.linkedin.com/company/74098548,Overcome addiction with peer support,"815 W 1250 S, Orem, UT",Orem,Utah,Actively Hiring,,40.256932,-111.72017
Airbatch,https://airbatch.io,2-10,B2B Software,Pre-Seed,https://www.linkedin.com/company/airbatch,Quality control platform for brands,,,Salt Lake,Actively Hiring,,40.755191,-111.881402
Elektrik App,https://elektrikapp.com,11-50,Marketplaces,Seed,https://www.linkedin.com/company/elektrikapp,Marketplace for electrical equipment,"1396 W 200 S Bldg 2 Unit E, Lindon, UT",Lindon,Utah,Actively Hiring,,40.309276,-111.698801
Grain,https://grain.com,11-50,B2B Software,Series A,https://www.linkedin.com/company/grainhq,AI Notetaker and Conversation Intelligence,"2701 N Thanksgiving Way #100, Lehi, UT",Lehi,Utah,Actively Hiring,,40.292273,-111.728956
Devote,https://usedevote.com,2-10,FinTech,Pre-Seed,https://www.linkedin.com/company/usedevote,All-in-one financial platform for nonprofits,"155 N 400 W, Salt Lake City, UT",Salt Lake City,Salt Lake,Actively Hiring,,40.758655,-111.842858
Learnie,https://mylearnie.com,2-10,B2B Software,Pre-Seed,https://www.linkedin.com/company/learnie,Peer-to-peer microlearning platform,"705 Matterhorn Dr, Park City, UT",Park City,Summit,Actively Hiring,,40.884782,-111.038737
Clientbook,https://www.clientbook.com,11-50,B2B Software,Series A,https://www.linkedin.com/company/clientbook-retail,Retail store sales clienteling tools,"3300 N Ashton Blvd Suite 175, Lehi, UT",Lehi,Utah,Actively Hiring,,40.263684,-111.692746
ADDAX Overland,https://www.addaxoverland.com,2-10,Consumer,Series A,https://www.linkedin.com/company/addax-overland,High-quality overlanding equipment,"32 1800 W H, Lindon, UT",Lindon,Utah,Actively Hiring,,40.307535,-111.714377
ElizaChat,https://elizachat.com,2-10,Bio/Medical Tech,Pre-Seed,https://www.linkedin.com/company/eliza-chat,Mental health coach powered by AI,"2701 N Thanksgiving Way #100, Lehi, UT",Lehi,Utah,Actively Hiring,,40.322374,-111.664463
Thymeless Enterprises,https://rosierue.com,51-200,Consumer,Bootstrapped,https://www.linkedin.com/company/thymeless,Streamline wedding vendor operations,"231 N University Ave, Provo, UT",Provo,Utah,Actively Hiring,,40.310724,-111.727643
SoloSuit,https://solosuit.com,11-50,FinTech,Seed,https://www.linkedin.com/company/36086542,Helps respond to debt collection lawsuits,,,Salt Lake,Actively Hiring,,40.73673,-111.948069
SquarePeg,https://www.squarepeghires.com,11-50,B2B Software,Seed,https://www.linkedin.com/company/squarepeg-hires,AI-assisted recruiting platform,"26 S Rio Grande St #2072, Salt Lake City, UT",Salt Lake City,Salt Lake,Actively Hiring,,40.740387,-111.893984
Swell,https://www.swellcx.com,51-200,B2B Software,Series A,https://www.linkedin.com/company/swell-cx,Experience management for healthcare,"6510 Millrock Dr STE 300, Holladay, UT",Holladay,Salt Lake,Actively Hiring,,40.788779,-111.942261
Monovo,https://monovo.care,11-50,Bio/Medical Tech,Seed,https://www.linkedin.com/company/monovotech,Improve health equity in communities,"2578 W 600 N, Lindon, UT",Lindon,Utah,Actively Hiring,,40.290055,-111.679028
Adminify AI,https://adminify.ai,11-50,B2B Software,Bootstrapped,https://www.linkedin.com/company/adminify-ai,All-in-one AI communication platform,"1250 E 200 S, Lehi, UT",Lehi,Utah,Actively Hiring,,40.272455,-111.671037
Territories.AI,https://territories.ai,2-10,B2B Software,Pre-Seed,https://www.linkedin.com/company/territories-ai,Intelligent revenue planning,"2701 N Thanksgiving Way #100, Lehi, UT",Lehi,Utah,Actively Hiring,,40.29645,-111.725322
SpaceAgent,https://spaceagent.app,2-10,B2B Software,Pre-Seed,https://www.linkedin.com/company/97418896,Lead gen copilot with data enrichment,"2174 S Main Street, Salt Lake City, UT",Salt Lake City,Salt Lake,Actively Hiring,,40.773285,-111.950335
PowerBx,https://powerbx.com,2-10,B2B Software,Bootstrapped,https://www.linkedin.com/company/6426403,Space management and scheduling solutions,"2174 S Main Street, Salt Lake City, UT",Salt Lake City,Salt Lake,Actively Hiring,,40.780877,-111.858594
TheraPro.ai,https://therapro.ai,2-10,Bio/Medical Tech,Seed,https://www.linkedin.com/company/theraproai,Empowering therapists with AI,"192 N Fort Ln, Layton, UT",Layton,Davis,Actively Hiring,,40.962327,-111.898982
Nodal Power Inc,https://nodalpowersystems.com,2-10,Energy,Seed,https://www.linkedin.com/company/nodal-power-systems,Landfill Gas-to-Energy Microgrids,"250 E 200 S, Salt Lake City, UT",Salt Lake City,Salt Lake,Actively Hiring,,40.734871,-111.836044
OgdenXR,https://www.ogdenxr.com,2-10,B2B Software,Seed,https://www.linkedin.com/company/ogdenxr,Visualization tools using immersive technologies,"4652 S 1025 E, Ogden, UT",Ogden,Weber,Actively Hiring,,41.262237,-112.019674
